City_ID,City,Lat,Lng,Max Temp,Humidity,Cloudiness,Wind Speed,Country,Date
0,qaqortoq,60.7167,-46.0333,-0.91,98,100,5.16,GL,1734590524
1,kirensk,57.7853,108.1119,-19.19,98,25,0.1,RU,1734590525
2,shakargarh,32.2623,75.1668,19.48,20,0,2.96,PK,1734590526
3,puerto natales,-51.7236,-72.4875,4.56,93,100,8.75,CL,1734590528
4,tiksi,71.6872,128.8694,-25.46,98,43,3.1,RU,1734590529
5,waitangi,-43.9535,-176.5597,13.79,99,100,3.58,NZ,1734590530
6,iqaluit,63.7506,-68.5145,-26.84,68,40,1.03,CA,1734590531
7,yuzhno-kurilsk,44.0306,145.8556,-1.99,69,4,4.86,RU,1734590532
8,puerto ayora,-0.7393,-90.3518,22.02,93,32,3.25,EC,1734590533
9,ribeira grande,38.5167,-28.7,14.87,73,30,4.92,PT,1734590534
10,ilulissat,69.2167,-51.1,-10.99,85,100,9.26,GL,1734590536
11,port-aux-francais,-49.35,70.2167,5.15,80,32,14.49,TF,1734590537
12,rezina,47.7492,28.9622,3.55,90,100,3.59,MD,1734590538
13,adamstown,-25.066,-130.1015,21.43,61,0,3.47,PN,1734590539
14,santa cruz,-17.8,-63.1667,24.7,94,75,7.72,BO,1734590540
15,psebay,44.1234,40.8107,0.02,58,94,0.21,RU,1734590541
16,xiaoshi,41.2971,124.1209,-2.3,44,100,0.1,CN,1734590542
17,sitangkai,4.6628,119.3928,28.17,81,82,4.94,PH,1734590544
18,grytviken,-54.2811,-36.5092,3.39,99,100,2.17,GS,1734590545
19,saldanha,-33.0117,17.9442,20.03,70,2,4.48,ZA,1734590546
20,utrik,11.2278,169.8474,27.31,85,7,11.16,MH,1734590547
21,horta,38.5333,-28.6333,14.45,73,23,4.92,PT,1734590548
22,lubao,14.9167,120.55,30.84,56,93,4.11,PH,1734590549
23,olonkinbyen,70.9221,-8.7187,-3.75,63,5,4.51,SJ,1734590552
24,happy valley-goose bay,53.3168,-60.3315,-5.83,86,100,2.06,CA,1734590553
25,colchani,-20.3,-66.9333,8.85,23,100,3.01,BO,1734590554
26,margaret river,-33.95,115.0667,21.89,47,0,7.18,AU,1734590555
27,punta arenas,-53.15,-70.9167,5.06,81,75,10.29,CL,1734590440
28,bilibino,68.0546,166.4372,-27.66,88,18,1.64,RU,1734590557
29,carbonear,47.7332,-53.2148,4.1,87,100,4.84,CA,1734590558
30,atafu village,-8.5421,-172.5159,28.79,77,100,8.93,TK,1734590560
31,lihue,21.9789,-159.3672,23.77,88,0,0.0,US,1734590561
32,klaksvik,62.2266,-6.589,4.08,63,88,17.4,FO,1734590562
33,nouadhibou,20.931,-17.0347,18.99,37,100,8.23,MR,1734590563
34,edinburgh of the seven seas,-37.0676,-12.3116,14.12,65,100,7.62,SH,1734590564
35,yellowknife,62.456,-114.3525,-34.21,87,20,1.54,CA,1734590565
36,presidencia de la plaza,-27.0015,-59.8424,19.27,98,100,3.71,AR,1734590566
37,port mathurin,-19.6833,63.4167,25.35,71,0,7.54,MU,1734590568
38,jayapura,-2.5333,140.7,29.66,77,95,3.72,ID,1734590569
39,iwanai,42.9744,140.5089,-0.64,72,100,6.08,JP,1734590570
40,bredasdorp,-34.5322,20.0403,21.91,48,5,4.47,ZA,1734590571
41,college,64.8569,-147.8028,-18.08,77,75,2.06,US,1734590572
42,west island,-12.1568,96.8225,28.99,84,100,7.2,CC,1734590573
43,khandyga,62.6667,135.6,-30.81,98,100,0.46,RU,1734590574
44,blackmans bay,-43.0167,147.3167,19.07,62,100,2.23,AU,1734590576
45,vadso,70.0744,29.7487,-13.91,78,75,5.14,NO,1734590578
46,invercargill,-46.4,168.35,17.23,70,0,6.71,NZ,1734590579
47,bethel,41.3712,-73.414,6.05,88,100,0.45,US,1734590580
48,jiangyou,31.7667,104.7167,6.85,86,100,1.98,CN,1734590581
49,vorgashor,67.5833,63.95,-22.89,100,96,1.95,RU,1734590584
50,port elizabeth,-33.918,25.5701,21.84,81,75,3.09,ZA,1734590585
51,fereydun kenar,36.6864,52.5225,10.08,75,100,4.75,IR,1734590586
52,champerico,14.3,-91.9167,25.32,78,100,1.72,GT,1734590587
53,tazovsky,67.4667,78.7,-16.56,98,100,2.8,RU,1734590588
54,mostaganem,35.9311,0.0892,15.35,35,100,3.29,DZ,1734590589
55,dzhalil',55.0239,52.7358,-9.72,96,99,2.27,RU,1734590590
56,georgetown,5.4112,100.3354,30.97,62,20,4.12,MY,1734590592
57,sulak,43.2734,47.5146,4.22,62,6,13.65,RU,1734590593
58,bagnan,22.9242,88.14,26.82,27,94,3.04,IN,1734590594
59,carnarvon,-24.8667,113.6333,28.79,63,0,10.71,AU,1734590595
60,hammerfest,70.6634,23.6821,-7.75,79,0,1.03,NO,1734590596
61,machico,32.7,-16.7667,19.28,77,20,1.54,PT,1734590597
62,pau,43.4167,-0.5833,15.36,67,75,4.63,FR,1734590598
63,bartlesville,36.7473,-95.9808,-0.55,91,0,0.0,US,1734590600
64,lebu,-37.6167,-73.65,11.71,82,8,8.72,CL,1734590601
65,cidreira,-30.1811,-50.2056,20.21,92,31,7.27,BR,1734590602
66,pullman,46.7313,-117.1796,4.94,90,0,1.54,US,1734590603
67,tralee,52.2704,-9.7026,6.42,75,99,9.38,IE,1734590604
68,remire-montjoly,4.9167,-52.2667,24.02,100,75,0.51,GF,1734590605
69,hithadhoo,-0.6,73.0833,27.71,80,52,7.97,MV,1734590606
70,puerto baquerizo moreno,-0.9,-89.6,22.07,92,65,4.5,EC,1734590608
71,petropavlovsk-kamchatsky,53.0452,158.6483,-1.67,64,75,0.0,RU,1734590609
72,holualoa,19.6228,-155.9522,21.57,81,0,0.65,US,1734590610
73,yung shue wan,22.2333,114.1167,18.52,45,10,0.89,HK,1734590611
74,saynshand,44.8824,110.1163,-8.23,46,0,5.57,MN,1734590612
75,ushuaia,-54.8,-68.3,4.81,87,100,4.12,AR,1734590613
76,nova sintra,14.8667,-24.7167,24.55,74,92,2.99,CV,1734590614
77,zagorz,49.5146,22.2671,4.42,83,86,6.39,PL,1734590616
78,malango,-2.9627,119.9001,25.08,87,100,1.99,ID,1734590617
79,egilsstadir,65.2653,-14.3948,-5.05,80,20,3.6,IS,1734590618
80,albany,42.6001,-73.9662,3.13,77,100,4.58,US,1734590619
81,kavieng,-2.5744,150.7967,28.72,76,100,4.97,PG,1734590620
82,san clemente del tuyu,-36.3569,-56.7235,19.18,85,100,5.35,AR,1734590621
83,whitehorse,60.7161,-135.0538,-27.57,76,40,0.0,CA,1734590622
84,hermanus,-34.4187,19.2345,22.11,59,0,2.97,ZA,1734590624
85,anna regina,7.2644,-58.5077,25.18,87,5,3.51,GY,1734590626
86,isafjordur,66.0755,-23.124,-5.19,78,100,2.58,IS,1734590627
87,posse,-14.0931,-46.3694,19.96,96,90,1.72,BR,1734590628
88,stanley,54.868,-1.6985,2.51,84,0,6.17,GB,1734590629
89,fort abbas,29.1925,72.8536,20.56,15,0,2.48,PK,1734590630
90,concepcion,-36.827,-73.0498,10.89,82,0,4.12,CL,1734590632
91,pimentel,-6.8367,-79.9342,20.16,73,0,4.12,PE,1734590633
92,arvi,20.9833,78.2333,27.29,18,98,2.92,IN,1734590634
93,port lincoln,-34.7333,135.8667,24.3,50,44,3.95,AU,1734590635
94,berezovo,63.9381,65.0419,-12.07,96,100,1.79,RU,1734590636
95,sassandra,4.95,-6.0833,24.13,90,11,1.06,CI,1734590637
96,mariehamn,60.0973,19.9348,5.92,93,100,4.12,AX,1734590639
97,saint-francois,46.4154,3.9054,13.01,71,0,3.09,FR,1734590640
98,island harbour,50.724,-1.2758,7.04,66,100,4.02,GB,1734590641
99,kolonia town,6.964,158.206,29.0,84,100,2.57,FM,1734590642
100,avarua,-21.2078,-159.775,25.03,100,100,1.03,CK,1734590643
101,manta,-0.95,-80.7333,24.88,69,100,6.69,EC,1734590644
102,bamboo flat,11.7,92.7167,30.05,70,40,4.63,IN,1734590645
103,ouarzazat,30.9189,-6.8934,4.16,38,0,1.54,MA,1734590647
104,kasongo-lunda,-6.4667,16.8167,23.77,92,100,0.24,CD,1734590648
105,ambodifotatra,-16.9833,49.85,31.03,55,20,1.03,MG,1734590649
106,matoury,4.8483,-52.3317,23.98,100,75,0.51,GF,1734590650
107,enewetak,11.3474,162.3373,27.55,83,100,9.86,MH,1734590651
108,sisimiut,66.9395,-53.6735,-13.3,79,100,5.36,GL,1734590652
109,haiku-pauwela,20.9219,-156.3051,24.01,87,100,1.54,US,1734590654
110,fort st. john,56.2499,-120.8529,-21.06,77,75,2.06,CA,1734590655
111,ugoofaaru,5.6667,73.0,27.51,81,81,4.18,MV,1734590656
112,mhamid,29.82,-5.72,9.23,26,0,0.87,MA,1734590657
113,talnakh,69.4865,88.3972,-13.69,94,100,4.44,RU,1734590658
114,udachny,66.4167,112.4,-26.83,99,47,1.76,RU,1734590659
115,jasper,37.2001,-94.3502,1.16,91,0,2.06,US,1734590660
116,umea,63.8284,20.2597,-0.04,100,100,3.09,SE,1734590662
117,czluchow,53.6672,17.3588,8.61,82,100,6.6,PL,1734590663
118,aasiaat,68.7098,-52.8699,-12.88,76,100,9.78,GL,1734590664
119,lompoc,34.6391,-120.4579,13.4,56,0,4.12,US,1734590665
120,woolgoolga,-30.1106,153.2007,22.93,56,95,8.44,AU,1734590666
121,argo,37.6333,22.7333,11.92,65,37,0.84,GR,1734590667
122,madara,11.7798,10.4479,13.47,40,1,4.02,NG,1734590668
123,port saint john's,-31.6229,29.5448,21.0,85,100,1.67,ZA,1734590670
124,wuxi,31.5689,120.2886,7.7,46,100,2.3,CN,1734590672
125,iskateley,67.6803,53.1512,-21.18,91,100,2.06,RU,1734590673
126,saipan,15.1355,145.701,31.39,80,40,5.66,MP,1734590674
127,inhambane,-23.865,35.3833,30.99,66,20,3.13,MZ,1734590675
128,xinyuan,37.3,99.0,-2.09,19,99,4.7,CN,1734590676
129,turbat,26.0023,63.044,21.19,8,68,7.68,PK,1734590677
130,smithers,54.7804,-127.1743,-8.82,92,0,1.54,CA,1734590679
131,la ligua,-32.4524,-71.2311,16.11,80,0,1.02,CL,1734590680
132,brisas de zicatela,15.8369,-97.0419,25.03,57,100,1.71,MX,1734590681
133,kearney,40.6995,-99.0815,0.95,71,0,8.05,US,1734590682
134,yeraliyev,43.2,51.65,4.9,52,89,14.04,KZ,1734590683
135,jamestown,42.097,-79.2353,0.57,96,100,5.14,US,1734590684
136,pisco,-13.7,-76.2167,20.03,88,40,0.0,PE,1734590685
137,thompson,55.7435,-97.8558,-27.91,76,0,3.09,CA,1734590687
138,la paz,-16.5,-68.15,10.32,76,75,1.34,BO,1734590688
139,qarqaraly,49.4058,75.4742,-5.09,81,100,3.52,KZ,1734590689
140,matthew town,20.95,-73.6667,25.72,84,20,8.47,BS,1734590690
141,puerto deseado,-47.7503,-65.8938,11.6,36,100,13.29,AR,1734590691
142,nha trang,12.25,109.1833,27.0,72,56,8.18,VN,1734590692
143,zheleznodorozhnyy,55.7503,38.0042,-16.25,97,100,1.92,RU,1734590693
144,new norfolk,-42.7826,147.0587,19.28,52,98,2.45,AU,1734590695
145,peace river,56.2501,-117.286,-21.83,84,100,1.03,CA,1734590457
146,badger,64.8,-147.5333,-18.13,81,75,2.06,US,1734590697
147,east london,-33.0153,27.9116,19.52,88,100,2.06,ZA,1734590698
148,laojunmiao,39.8333,97.7333,-5.23,59,0,1.12,CN,1734590699
149,raufoss,60.7264,10.6172,-1.92,89,100,2.01,NO,1734590700
150,ust-nera,64.5667,143.2,-25.31,100,100,1.14,RU,1734590701
151,weno,7.4515,151.8468,28.69,76,87,7.99,FM,1734590703
152,box elder,41.5005,-112.8764,5.67,65,77,1.34,US,1734590704
153,hawaiian paradise park,19.5933,-154.9731,23.83,98,75,1.54,US,1734590705
154,eirunepe,-6.6603,-69.8736,22.06,98,98,0.77,BR,1734590706
155,coquimbo,-29.9533,-71.3436,12.85,100,0,1.03,CL,1734590707
156,ta'if,21.2703,40.4158,16.56,35,98,1.47,SA,1734590708
157,fale old settlement,-9.3852,-171.2468,28.69,78,97,9.0,TK,1734590710
158,kerikeri,-35.2268,173.9474,19.32,62,8,3.04,NZ,1734590711
159,okhotsk,59.3833,143.3,-15.77,85,16,5.67,RU,1734590712
160,chengde,40.9725,117.9361,-2.42,28,100,0.45,CN,1734590713
161,anadyr,64.75,177.4833,-0.72,69,100,4.0,RU,1734590714
162,el bayadh,33.6832,1.0193,5.95,32,7,0.79,DZ,1734590715
163,huilong,31.8111,121.655,7.94,53,100,4.83,CN,1734590716
164,ribadesella,43.4614,-5.0596,12.65,89,100,9.42,ES,1734590718
165,uthal,25.8072,66.6219,22.6,29,46,0.81,PK,1734590719
166,zhenlai,45.8495,123.2973,-10.26,82,100,1.86,CN,1734590721
167,dunedin,-45.8742,170.5036,12.57,97,100,5.85,NZ,1734590722
168,kitimat,54.0524,-128.6534,-0.61,40,100,1.63,CA,1734590724
169,pekin,39.9075,116.3972,0.94,30,100,2.35,CN,1734590517
170,barra,-11.0894,-43.1417,23.35,83,79,0.23,BR,1734590726
171,kodiak,57.79,-152.4072,3.73,100,100,8.75,US,1734590727
172,afaahiti,-17.75,-149.2833,25.39,83,67,5.93,PF,1734590728
173,papatowai,-46.5619,169.4708,12.05,95,99,7.97,NZ,1734590729
174,port alfred,-33.5906,26.891,20.1,91,100,1.79,ZA,1734590730
175,shivpuri,25.4333,77.65,22.14,21,0,3.5,IN,1734590732
176,longyearbyen,78.2186,15.6401,-9.09,62,40,2.57,SJ,1734590733
177,pacific grove,36.6177,-121.9166,14.49,68,0,6.26,US,1734590734
178,ulaangom,49.9811,92.0667,-19.67,95,100,0.93,MN,1734590735
179,nizhneudinsk,54.9076,99.0276,-9.67,72,1,2.05,RU,1734590737
180,venev,54.3553,38.2684,-15.73,94,100,2.55,RU,1734590739
181,gadzhiyevo,69.2551,33.3362,-20.78,100,100,4.88,RU,1734590740
182,polyarnyy,69.1989,33.4478,-20.01,100,98,4.75,RU,1734590741
183,banda aceh,5.5577,95.3222,29.59,69,73,3.33,ID,1734590742
184,colonia,50.9333,6.95,14.42,79,75,7.2,DE,1734590743
185,naliya,23.2667,68.8333,24.66,11,4,5.21,IN,1734590744
186,wailua homesteads,22.0669,-159.378,23.44,92,0,0.0,US,1734590745
187,san antonio de pale,-1.4014,5.6325,26.71,80,7,2.14,GQ,1734590747
188,huruta,8.15,39.35,19.6,33,2,2.3,ET,1734590748
189,cockburn town,21.4612,-71.1419,26.21,82,2,10.54,TC,1734590749
190,vilyuchinsk,52.9306,158.4028,-0.85,80,100,1.99,RU,1734590750
191,bijbehara,33.8,75.1,6.94,15,0,1.71,IN,1734590751
192,fortuna,40.5982,-124.1573,11.86,97,0,3.6,US,1734590752
193,al kharijah,25.4514,30.5464,14.35,49,100,2.84,EG,1734590754
194,pemangkat,1.1667,108.9667,27.5,79,100,2.6,ID,1734590755
195,augusto correa,-1.0217,-46.635,24.54,91,17,0.63,BR,1734590756
196,aksu,41.1231,80.2644,-5.99,72,20,0.73,CN,1734590758
197,rio claro,-22.4114,-47.5614,17.48,92,0,1.44,BR,1734590759
198,virginia,37.5481,-77.4467,11.27,91,100,7.72,US,1734590724
199,nar'yan-mar,67.6713,53.087,-21.18,91,100,2.06,RU,1734590762
200,pitimbu,-7.4706,-34.8086,25.96,82,96,3.9,BR,1734590764
201,christchurch,-43.5333,172.6333,16.06,85,100,4.63,NZ,1734590695
202,quelimane,-17.8786,36.8883,30.97,52,20,5.36,MZ,1734590766
203,luau,-10.7073,22.2247,20.04,93,100,1.23,AO,1734590768
204,douentza,14.9951,-2.9517,15.64,26,100,1.99,ML,1734590770
205,salalah,17.0151,54.0924,23.05,35,0,7.2,OM,1734590771
206,san jose del guaviare,2.5729,-72.6459,20.55,96,95,0.45,CO,1734590772
207,magna,40.7091,-112.1016,5.32,65,0,3.6,US,1734590773
208,chinde,26.8212,87.7095,23.56,36,0,2.66,NP,1734590775
209,ornskoldsvik,63.2909,18.7153,1.53,100,100,1.03,SE,1734590776
210,chonchi,-42.6128,-73.8092,10.07,76,100,1.19,CL,1734590777
211,vila franca do campo,37.7167,-25.4333,14.23,87,21,2.0,PT,1734590778
212,akrehamn,59.2667,5.1833,7.14,61,40,12.86,NO,1734590779
213,acarau,-2.8856,-40.12,27.31,73,100,6.76,BR,1734590780
214,constantia,44.1833,28.65,2.61,75,0,2.85,RO,1734590781
215,westport,41.1415,-73.3579,6.87,89,100,3.09,US,1734590783
216,kondopoga,62.2057,34.2614,-9.15,80,100,3.98,RU,1734590785
217,khandud,36.9513,72.318,-6.74,58,4,1.0,AF,1734590786
218,quibdo,5.6947,-76.6611,23.99,97,100,1.34,CO,1734590787
219,abu dhabi,24.4667,54.3667,23.06,53,40,3.09,AE,1734590788
220,kavaratti,10.5669,72.642,27.15,66,31,2.63,IN,1734590790
221,kapa'a,22.0752,-159.319,24.18,92,0,0.0,US,1734590791
222,mana,5.6592,-53.7767,24.51,91,100,2.92,GF,1734590792
223,keflavik,64.0049,-22.5624,-0.76,80,100,4.12,IS,1734590793
224,arua,3.0201,30.9111,26.13,43,17,0.99,UG,1734590794
225,corsicana,32.0954,-96.4689,7.16,77,0,3.09,US,1734590795
226,kurchatov,51.6601,35.6521,-5.58,85,100,4.03,RU,1734590648
227,namtsy,62.7161,129.6658,-30.78,99,100,0.3,RU,1734590798
228,aldinga beach,-35.2793,138.4604,32.27,28,0,3.6,AU,1734590799
229,severo-yeniseyskiy,60.3725,93.0408,-13.13,87,100,2.43,RU,1734590800
230,fort saskatchewan,53.7168,-113.2187,-17.9,96,100,1.47,CA,1734590801
231,cooma,-36.2333,149.1333,23.49,26,0,4.79,AU,1734590802
232,pierre,44.3683,-100.351,-0.4,93,100,6.17,US,1734590771
233,alo,6.5486,4.2686,22.64,50,100,2.12,NG,1734590804
234,la quiaca,-22.1024,-65.593,10.42,74,28,0.08,AR,1734590806
235,nuku'alofa,-21.1333,-175.2,28.19,78,40,1.54,TO,1734590807
236,georgiyevka,43.0369,74.7114,0.02,59,100,4.0,KZ,1734590808
237,sinabang,2.4803,96.3801,27.53,81,94,1.2,ID,1734590809
238,kalmunai,7.4167,81.8167,29.11,70,87,1.72,LK,1734590810
239,vershino-darasunskiy,52.35,115.5167,-16.75,86,8,1.19,RU,1734590811
240,gorontalo,0.5412,123.0595,30.21,72,26,1.73,ID,1734590812
241,tafuna,-14.3358,-170.72,26.97,83,100,2.06,AS,1734590814
242,dzilam gonzalez,21.2833,-88.9333,22.01,98,23,1.55,MX,1734590815
243,mikhaylovskoye,51.8239,79.7172,-5.17,77,82,4.28,RU,1734590816
244,kruisfontein,-34.0033,24.7314,21.91,52,0,5.08,ZA,1734590817
245,al qusiyah,27.4402,30.8184,14.56,61,0,4.53,EG,1734590818
246,port lavaca,28.615,-96.6261,14.43,76,0,3.09,US,1734590819
247,novodvinsk,64.4165,40.8122,-20.14,100,92,1.33,RU,1734590821
248,tibati,6.4667,12.6333,21.88,22,39,3.36,CM,1734590822
249,prince george,53.9166,-122.753,-7.06,95,100,3.6,CA,1734590702
250,kidal,18.4411,1.4078,13.07,40,45,10.12,ML,1734590824
251,tuba city,36.135,-111.2399,4.59,42,98,0.18,US,1734590825
252,magong,23.5654,119.5863,16.64,74,100,16.96,TW,1734590556
253,taoudenni,22.6783,-3.9836,12.03,48,0,5.81,ML,1734590827
254,luderitz,-26.6481,15.1594,19.88,56,0,6.63,NA,1734590829
255,castillos,-34.1667,-53.8333,15.73,96,100,1.55,UY,1734590830
256,sena madureira,-9.0656,-68.6569,22.38,99,100,0.85,BR,1734590831
257,grand falls-windsor,48.9332,-55.6649,1.43,84,100,3.97,CA,1734590832
258,sinop,41.7711,34.8709,5.49,74,5,3.79,TR,1734590833
259,rodolfo sanchez taboada,31.7167,-116.5667,15.25,50,0,1.21,MX,1734590836
260,kamaishi,39.2667,141.8833,1.41,50,40,0.82,JP,1734590837
261,nova vicosa,-17.8919,-39.3719,23.91,93,0,1.62,BR,1734590838
262,tolanaro,-25.0319,46.9987,32.04,48,0,8.23,MG,1734590839
263,san andres,12.5847,-81.7006,28.01,83,20,5.14,CO,1734590840
264,dryden,49.7833,-92.7503,-21.84,84,40,2.06,CA,1734590841
265,la'ie,21.6477,-157.9253,24.66,89,2,2.0,US,1734590842
266,markovo,57.3206,107.0881,-17.66,97,19,0.36,RU,1734590844
267,dudinka,69.4058,86.1778,-14.62,94,97,4.05,RU,1734590845
268,bodo,67.28,14.405,-2.98,69,75,14.4,NO,1734590846
269,tofol,5.3248,163.0078,28.88,79,100,3.09,FM,1734590847
270,ciudad lazaro cardenas,17.9583,-102.2,23.64,90,100,1.81,MX,1734590848
271,vilyuysk,63.7553,121.6247,-21.38,99,77,2.59,RU,1734590849
272,puerto carreno,6.189,-67.4859,26.99,89,0,1.34,CO,1734590850
273,fort bragg,35.139,-79.006,16.91,95,0,3.09,US,1734590852
274,pampa,35.5362,-100.9599,4.02,56,0,8.23,US,1734590853
275,pamandzi,-12.7967,45.2794,24.88,88,100,5.14,YT,1734590854
276,isangel,-19.55,169.2667,26.49,82,100,1.43,VU,1734590855
277,tromso,69.6496,18.957,-7.99,73,0,0.51,NO,1734590856
278,st. john's,47.5649,-52.7093,4.43,86,100,5.66,CA,1734590707
279,weyburn,49.6668,-103.8511,-14.88,85,100,4.63,CA,1734590860
280,tomohon,1.3346,124.8392,26.52,67,4,3.19,ID,1734590861
281,klyuchi,52.2667,79.1667,-6.04,85,100,4.75,RU,1734590862
282,plettenberg bay,-34.0527,23.3716,21.56,56,2,2.8,ZA,1734590863
283,prince rupert,54.3161,-130.3201,6.83,75,100,9.77,CA,1734590864
284,kingston,17.997,-76.7936,26.53,83,20,1.54,JM,1734590865
285,karamay,45.6004,84.8661,-9.39,78,17,2.19,CN,1734590867
286,laela,-8.5667,32.05,19.91,83,32,2.86,TZ,1734590868
287,grand gaube,-20.0064,57.6608,27.99,72,17,4.02,MU,1734590869
288,kalaoa,19.7286,-155.9817,20.22,88,0,0.45,US,1734590870
289,raja,8.4596,25.678,28.81,27,90,3.14,SS,1734590871
290,kiomboi,-4.2667,34.3667,20.11,76,75,2.31,TZ,1734590872
291,den burg,53.0542,4.7972,8.98,93,75,7.72,NL,1734590873
292,tarawa,1.419,172.984,29.05,74,20,4.63,KI,1734590876
293,bechar,31.6167,-2.2167,1.18,64,0,0.51,DZ,1734590877
294,tabuk,17.4189,121.4443,23.03,85,71,5.52,PH,1734590878
295,'alaqahdari dishu,30.4374,63.313,11.99,18,0,2.13,AF,1734590879
296,ozalp,38.6548,43.993,-6.07,80,47,0.69,TR,1734590880
297,balaklava,44.5,33.6,9.65,52,16,3.57,UA,1734590882
298,ketchikan,55.3422,-131.6461,4.63,87,100,2.57,US,1734590883
299,polovinnoye,54.7914,65.9864,-0.48,94,100,5.16,RU,1734590884
300,goundi,9.3627,17.366,22.23,21,82,3.48,TD,1734590885
301,praia,14.9215,-23.5087,23.3,73,24,6.17,CV,1734590886
302,cabo san lucas,22.8909,-109.9124,19.31,73,6,0.97,MX,1734590326
303,qoryooley,1.7878,44.53,30.74,50,83,4.67,SO,1734590889
304,betioky,-23.7167,44.3833,39.66,13,41,1.78,MG,1734590890
305,kapuskasing,49.4169,-82.4331,-17.95,78,100,4.12,CA,1734590891
306,tougue,11.4667,-11.6,14.75,24,41,1.3,GN,1734590892
307,geraldton,-28.7667,114.6,26.23,61,0,12.35,AU,1734590893
308,nishinoomote,30.7333,131.0,11.31,53,20,3.6,JP,1734590894
309,kone,-21.0595,164.8658,27.45,71,100,2.33,NC,1734590896
310,kayenta,36.7278,-110.2546,3.33,39,59,1.48,US,1734590760
311,mont-dore,-22.2833,166.5833,24.58,72,100,2.39,NC,1734590898
312,rechka-vydrino,51.485,104.8461,-7.04,90,100,2.8,RU,1734590899
313,olyokminsk,60.3736,120.4264,-12.14,92,100,3.57,RU,1734590900
314,labrador city,52.9463,-66.9114,-13.05,85,100,2.06,CA,1734590901
315,dongning,44.0622,131.1207,-6.16,48,92,4.49,CN,1734590902
316,taroa,8.7058,171.2275,27.72,83,89,10.76,MH,1734590904
317,tura,25.5198,90.2201,24.35,38,100,2.01,IN,1734590905
318,abancay,-13.6339,-72.8814,14.19,96,100,0.72,PE,1734590906
319,kassala,15.451,36.4,27.84,40,56,2.5,SD,1734590907
320,carutapera,-1.195,-46.02,25.93,84,79,2.71,BR,1734590908
321,ash shafa,21.0694,40.3119,13.06,49,24,1.61,SA,1734590909
322,ingeniero jacobacci,-41.3427,-69.5448,8.13,41,5,7.19,AR,1734590910
323,greymouth,-42.4667,171.2,17.98,69,8,2.63,NZ,1734590799
324,melekeok village,7.4957,134.6367,31.31,70,75,4.12,PW,1734590914
325,nemuro,43.3236,145.575,-0.84,63,18,2.36,JP,1734590915
326,porto novo,6.4965,2.6036,24.9,63,47,2.18,BJ,1734590916
327,north bend,43.4065,-124.2243,11.2,100,100,3.09,US,1734590917
328,hasaki,35.7333,140.8333,8.87,51,97,9.47,JP,1734590919
329,mount gambier,-37.8333,140.7667,23.96,40,8,3.79,AU,1734590920
330,le port,-20.9373,55.2919,29.17,83,99,3.41,RE,1734590921
331,daru,-9.0763,143.2092,31.16,70,83,4.04,PG,1734590922
332,san juan,-31.5375,-68.5364,22.96,38,0,0.9,AR,1734590923
333,curvelo,-18.7564,-44.4308,20.47,91,23,1.25,BR,1734590924
334,mejit,10.2753,170.8646,27.27,85,44,10.84,MH,1734590925
335,olinda,-8.0089,-34.8553,26.85,83,40,3.6,BR,1734590927
336,uacu cungo,-11.3634,15.1208,19.12,95,91,1.39,AO,1734590928
337,tadine,-21.55,167.8833,24.99,74,100,2.31,NC,1734590929
338,bukittinggi,-0.3091,100.3706,24.92,74,77,2.23,ID,1734590930
339,gargalianoi,37.0667,21.6333,11.79,74,8,1.22,GR,1734590931
340,barcelos,41.5388,-8.6151,13.77,95,56,4.43,PT,1734590932
341,glen innes,-29.7333,151.7333,22.79,37,0,4.91,AU,1734590933
342,codajas,-3.8367,-62.0569,22.51,98,84,0.33,BR,1734590935
343,alofi,-19.0595,-169.9187,26.94,89,20,2.06,NU,1734590936
344,kirakira,-10.4544,161.9205,28.7,82,91,2.61,SB,1734590937
345,pingliang,35.5392,106.6861,3.73,39,4,2.17,CN,1734590938
346,alamo,20.9167,-97.6833,19.83,95,13,0.91,MX,1734590939
347,rongelap,11.1635,166.8941,27.29,85,97,10.81,MH,1734590940
348,tsiombe,-25.3,45.4833,39.11,22,9,0.48,MG,1734590941
349,lembeni,-3.7833,37.6167,23.78,69,46,1.32,TZ,1734590943
350,saint-joseph,-21.3667,55.6167,29.21,57,93,3.95,RE,1734590944
351,harstad,68.799,16.5293,-4.91,79,100,10.28,NO,1734590945
352,mount isa,-20.7333,139.5,27.87,74,75,5.66,AU,1734590946
353,queenstown,-31.8976,26.8753,18.89,70,100,1.48,ZA,1734590947
354,marka,1.7159,44.7717,28.86,64,100,5.39,SO,1734590948
355,arar,30.9753,41.0381,6.01,28,0,2.06,SA,1734590949
356,guaratinga,-16.5667,-39.5667,21.41,93,12,0.82,BR,1734590951
357,vernon,50.2581,-119.2691,0.97,94,100,4.12,CA,1734590952
358,ola,59.5833,151.2833,-15.94,75,100,5.61,RU,1734590953
359,howard springs,-12.497,131.047,31.6,66,100,2.45,AU,1734590954
360,saint-pierre,-21.3393,55.4781,29.82,54,0,3.09,RE,1734590955
361,papar,5.7333,115.9333,32.0,76,100,1.7,MY,1734590956
362,kara suu,40.7046,72.8667,0.98,55,100,2.0,KG,1734590957
363,erenhot,43.6475,111.9767,-4.71,36,16,6.28,CN,1734590959
364,oshakati,-17.7833,15.6833,26.21,14,17,5.16,NA,1734590960
365,mar del plata,-38.0023,-57.5575,19.97,83,0,2.06,AR,1734590961
366,balti,47.7617,27.9289,3.58,87,96,2.18,MD,1734590962
367,lorengau,-2.0226,147.2712,28.56,82,100,3.8,PG,1734590963
368,mwinilunga,-11.7358,24.4293,19.97,82,100,0.62,ZM,1734590964
369,meadow lakes,61.6247,-149.6011,-3.75,67,19,1.48,US,1734590965
370,san ignacio de velasco,-16.3667,-60.95,22.23,85,100,2.7,BO,1734590967
371,okondja,-0.6549,13.6753,25.12,82,100,1.08,GA,1734590968
372,oborniki,52.6474,16.8141,10.65,77,100,7.5,PL,1734590969
373,tshabong,-26.05,22.45,26.95,50,6,5.85,BW,1734590970
374,melo,-32.3667,-54.1833,16.5,94,100,1.26,UY,1734590971
375,san luis acatlan,16.8167,-98.7333,22.2,77,100,1.79,MX,1734590972
376,labytnangi,66.6572,66.4183,-23.31,97,100,1.39,RU,1734590973
377,crane,31.3974,-102.3501,7.59,37,2,3.2,US,1734590975
378,huarmey,-10.0681,-78.1522,19.17,88,100,2.67,PE,1734590976
379,avellaneda,-29.1176,-59.6583,19.11,98,100,1.76,AR,1734590977
380,bukama,-9.2,25.85,24.48,81,98,1.04,CD,1734590978
381,hotan,37.0997,79.9269,-2.75,48,0,1.7,CN,1734590979
382,alice springs,-23.7,133.8833,38.75,7,0,6.17,AU,1734590980
383,berbera,10.4396,45.0143,25.8,54,35,4.36,SO,1734590981
384,fort frances,48.5999,-93.4003,-17.75,87,0,2.47,CA,1734590983
385,cestos city,5.46,-9.5828,25.5,87,100,1.25,LR,1734590984
386,codrington,-38.2667,141.9667,21.51,53,5,5.46,AU,1734590985
387,tokar,18.4254,37.729,28.4,55,8,5.49,SD,1734590986
388,howrah,22.5892,88.3103,26.0,47,40,5.66,IN,1734590987
389,san juan de miraflores,-12.1629,-76.9635,19.54,85,100,2.55,PE,1734590988
390,namibe,-15.1961,12.1522,22.58,69,59,1.03,AO,1734590990
391,antalaha,-14.9003,50.2788,28.28,60,53,4.92,MG,1734590991
392,bhalki,18.0333,77.2167,27.51,23,93,2.72,IN,1734590993
393,bazarak,35.3129,69.5152,2.71,23,0,1.28,AF,1734590994
394,cozumel,20.5083,-86.9458,24.41,94,18,3.95,MX,1734590995
395,new shagunnu,10.3396,4.4688,20.16,31,0,5.35,NG,1734590996
396,villa gesell,-37.2639,-56.973,19.16,76,100,4.63,AR,1734590998
397,navirai,-23.065,-54.1906,21.9,82,100,1.81,BR,1734590999
398,bengkulu,-3.8004,102.2655,27.02,79,96,4.88,ID,1734591000
399,cudillero,43.5622,-6.1459,12.34,93,75,6.69,ES,1734591001
400,mallow,52.1333,-8.6333,4.79,77,79,7.39,IE,1734591002
401,fuxin,42.0156,121.6589,-2.98,26,100,3.49,CN,1734591003
402,rock springs,41.5875,-109.2029,1.69,69,0,10.8,US,1734591004
403,balykshi,47.0667,51.8667,-5.0,74,75,13.0,KZ,1734591006
404,inirida,3.8653,-67.9239,22.96,98,100,0.36,CO,1734591007
405,praia da vitoria,38.7333,-27.0667,12.14,94,40,4.08,PT,1734591008
406,moussoro,13.6408,16.4901,18.22,25,12,5.34,TD,1734591009
407,altai,46.3722,96.2583,-14.04,65,0,0.33,MN,1734591010
408,oswego,43.4501,-76.1497,3.08,94,100,2.68,US,1734591011
409,lagoa,39.05,-27.9833,14.92,57,6,5.44,PT,1734591012
410,pestovo,58.5938,35.8024,-13.27,90,100,3.73,RU,1734591014
411,nagqu,31.5,92.0,2.89,7,3,11.71,CN,1734591015
412,santarem,-2.4431,-54.7083,25.07,94,75,2.06,BR,1734591016
413,kailua-kona,19.6406,-155.9956,23.09,85,0,0.45,US,1734590955
414,belle fourche,44.6714,-103.8522,8.94,43,43,15.04,US,1734591018
415,mahdia,35.5047,11.0622,11.71,53,6,3.16,TN,1734591019
416,pauini,-7.7136,-66.9764,21.65,95,79,0.59,BR,1734591020
417,broadstairs,51.3591,1.4394,6.99,83,100,1.34,GB,1734591022
418,stepnoye,51.4,46.8667,-12.05,90,15,5.8,RU,1734591023
419,tselinnoye,53.0833,85.6667,-9.68,83,100,1.85,RU,1734591024
420,cabedelo,-6.9811,-34.8339,25.37,84,100,3.62,BR,1734591025
421,jiazi,22.8779,116.067,17.53,37,1,3.9,CN,1734591026
422,hamilton,39.1834,-84.5333,2.47,81,100,2.06,US,1734591027
423,celendin,-6.8703,-78.1517,12.39,91,73,1.49,PE,1734591028
424,tamanrasset,22.785,5.5228,7.95,29,0,7.72,DZ,1734591030
425,susuman,62.7833,148.1667,-27.41,100,100,1.58,RU,1734591032
426,fedorovskiy,45.0972,40.9517,2.33,79,95,5.66,RU,1734591033
427,uturoa,-16.7333,-151.4333,27.26,76,100,6.31,PF,1734591034
428,zhangye,38.9342,100.4517,-4.17,49,0,1.24,CN,1734591036
429,burutu,5.3509,5.5076,25.97,81,25,2.59,NG,1734591037
430,kodinsk,58.6881,99.1844,-15.71,90,6,1.26,RU,1734591038
431,al bawiti,28.3492,28.8659,13.46,76,0,2.8,EG,1734591039
432,jember,-8.166,113.7032,30.46,67,100,3.82,ID,1734591040
433,chibougamau,49.9168,-74.3659,-11.21,85,100,2.57,CA,1734591041
434,dalbandin,28.8947,64.4101,11.11,20,0,2.56,PK,1734591042
435,constitucion,-35.3333,-72.4167,13.82,66,4,2.45,CL,1734591044
436,thai binh,20.45,106.3333,21.97,39,8,5.0,VN,1734591045
437,akobo,7.4344,3.9497,20.63,24,83,2.5,NG,1734591046
438,pasuquin,18.3328,120.6177,28.97,58,20,9.26,PH,1734591047
439,axim,4.8699,-2.2405,25.88,84,7,1.36,GH,1734591048
440,figuig (centre),32.1089,-1.2286,8.15,37,5,1.06,MA,1734591049
441,yelizovo,53.1873,158.3805,-0.92,64,75,0.0,RU,1734591050
442,powell river,49.8496,-124.5361,3.15,82,100,3.41,CA,1734591052
443,bubaque,11.2833,-15.8333,25.59,46,72,6.69,GW,1734591053
444,arno,60.1167,18.6333,6.18,79,100,7.52,SE,1734591054
445,n'zeto,-7.2312,12.8666,26.09,88,100,2.52,AO,1734591055
446,tual,-5.6667,132.75,28.79,80,100,8.04,ID,1734591056
447,taltal,-25.4,-70.4833,16.8,85,43,1.4,CL,1734591057
448,koysinceq,36.0821,44.6278,7.65,52,0,1.31,IQ,1734591058
449,usinsk,65.9939,57.5281,-29.14,100,17,1.58,RU,1734590789
450,sao paulo de olivenca,-3.3783,-68.8725,21.87,99,98,0.88,BR,1734591061
451,rio grande,-32.035,-52.0986,20.36,87,98,6.97,BR,1734591062
452,ust'-ilimsk,58.0006,102.6619,-16.72,93,3,0.63,RU,1734591063
453,adrar,20.5022,-10.0711,11.48,41,100,7.04,MR,1734591064
454,cambria,35.5641,-121.0808,15.03,49,100,0.45,US,1734591065
455,mumford,5.2618,-0.759,26.23,80,40,0.68,GH,1734591066
456,sanming,26.2486,117.6186,11.74,43,6,2.14,CN,1734591068
457,tubarjal,30.4999,38.216,11.45,17,0,5.49,SA,1734591069
458,west bay,19.3667,-81.4167,27.04,83,20,3.09,KY,1734591070
459,san carlos,9.6612,-68.5827,25.3,74,90,0.87,VE,1734591071
460,bernay,49.1667,0.6667,8.24,89,100,21.9,FR,1734591072
461,viqueque,-8.8673,126.3658,30.09,69,100,3.72,TL,1734591073
462,muynoq,43.7683,59.0214,3.42,62,7,11.02,UZ,1734591075
463,ancud,-41.8697,-73.8203,9.86,73,100,1.95,CL,1734591076
464,livingstone,-17.8419,25.8543,24.66,77,100,1.54,ZM,1734591077
465,ampanihy,-24.7,44.75,37.76,18,24,2.05,MG,1734591078
466,slavyanka,42.8633,131.3847,-3.66,36,9,2.03,RU,1734591079
467,aitape,-3.1374,142.3475,28.82,78,82,4.48,PG,1734591080
468,behshahr,36.6923,53.5526,10.96,68,67,2.94,IR,1734591081
469,caidian,30.5833,114.0333,6.07,36,100,1.91,CN,1734591083
470,itaituba,-4.2761,-55.9836,22.83,98,99,0.4,BR,1734591084
471,cannonvale,-20.2833,148.7,26.66,73,90,6.02,AU,1734591085
472,aykhal,66.0,111.5,-24.1,100,100,2.05,RU,1734591086
473,tazacorte,28.629,-17.9293,17.3,33,0,2.68,ES,1734591087
474,port loko,8.7667,-12.7833,20.29,99,41,1.56,SL,1734591088
475,ongwediva,-17.7833,15.7667,26.34,15,16,5.07,NA,1734591089
476,chudniv,50.052,28.1175,5.41,75,100,5.79,UA,1734591091
477,xinglongshan,43.9561,125.4661,-6.14,45,0,6.0,CN,1734591092
478,shubarkuduk,49.1447,56.4872,-10.95,94,100,5.08,KZ,1734591093
479,ta'izz,13.5,44.0,19.01,48,51,1.1,YE,1734591094
480,anderson,34.5334,-82.6499,12.38,96,0,0.0,US,1734591095
481,fort mcmurray,56.7268,-111.381,-26.23,76,100,2.06,CA,1734591096
482,xifeng,42.7372,124.7222,-7.53,64,99,1.22,CN,1734591097
483,ndago,-4.6,34.35,19.76,82,98,2.38,TZ,1734591099
484,sorong,-0.8833,131.25,29.34,75,63,4.74,ID,1734591100
485,arraial do cabo,-22.9661,-42.0278,22.76,79,22,1.44,BR,1734591101
486,mazowe,-17.504,30.9739,25.66,51,96,4.15,ZW,1734591102
487,dadukou,26.5479,101.7054,19.2,47,53,1.63,CN,1734591103
488,ochakiv,46.6128,31.5498,8.13,84,95,5.35,UA,1734591104
489,callao,-12.0667,-77.15,20.4,83,20,4.63,PE,1734591105
490,hadibu,12.65,54.0333,23.93,55,3,6.55,YE,1734591107
491,balao,-2.9167,-79.8167,23.89,84,100,1.07,EC,1734591108
492,flying fish cove,-10.4217,105.6791,24.82,94,100,3.6,CX,1734591109
493,acajutla,13.5928,-89.8275,25.32,67,99,2.62,SV,1734591110
494,shantobe,52.4581,68.1839,-0.37,98,100,6.84,KZ,1734591111
495,loiza,18.4313,-65.8802,24.99,89,40,4.63,PR,1734591112
496,sathyamangalam,11.5167,77.25,30.79,56,100,2.21,IN,1734591114
497,nizhniy kuranakh,58.8353,125.4869,-24.54,98,100,1.78,RU,1734591115
498,albertina,-22.2008,-46.6158,16.16,84,0,2.29,BR,1734591116
499,andovoranto,-18.95,49.1,29.86,53,24,3.11,MG,1734591117
500,magadan,59.5667,150.8,-16.47,74,100,4.41,RU,1734591118
501,broken hill,-31.95,141.4333,32.79,14,0,5.18,AU,1734591119
502,sol'-iletsk,51.1631,54.9918,-7.79,96,100,2.92,RU,1734591120
503,morris,40.8334,-74.5329,4.75,89,100,4.02,US,1734591122
504,sao joao da barra,-21.6403,-41.0511,22.63,89,85,2.02,BR,1734591123
505,dzhetygara,52.1908,61.2006,-4.24,88,94,7.82,KZ,1734591124
506,masterton,-40.9597,175.6575,14.68,99,100,3.3,NZ,1734591125
507,nikolayevsk-on-amure,53.1406,140.73,-21.46,98,83,2.47,RU,1734591126
508,buala,-8.145,159.5921,28.98,77,87,1.65,SB,1734591127
509,conceicao da barra,-18.5933,-39.7322,22.0,98,38,1.5,BR,1734591130
510,kholmsk,47.0511,142.0569,-6.79,83,100,1.35,RU,1734591131
511,potosi,-19.5836,-65.7531,8.52,75,66,1.46,BO,1734591132
512,brecon,51.9461,-3.3889,3.74,81,72,8.42,GB,1734591133
513,san patricio,28.017,-97.5169,14.97,54,0,4.82,US,1734591134
514,kuala terengganu,5.3302,103.1408,28.97,79,40,3.6,MY,1734591135
515,urengoy,65.9667,78.3667,-13.43,95,100,2.8,RU,1734591139
516,bonthe,7.5264,-12.505,23.65,97,30,2.93,SL,1734591140
517,saudarkrokur,65.7461,-19.6394,-6.89,92,100,4.33,IS,1734591141
518,kayan,16.9056,96.5631,31.2,46,100,2.99,MM,1734591143
519,guerrero negro,27.9769,-114.0611,14.69,58,0,1.74,MX,1734591144
520,kirkuk,35.4681,44.3922,10.63,43,0,1.59,IQ,1734591145
521,shanhecun,44.7,127.2,-11.16,86,100,2.61,CN,1734591146
522,villa dolores,-31.9459,-65.1896,17.8,77,1,0.91,AR,1734591147
523,basco,20.4487,121.9702,22.16,78,100,15.27,PH,1734591148
524,alajarvi,63.0,23.8167,-0.7,93,100,6.16,FI,1734591150
525,melfort,52.8667,-104.6177,-23.93,84,100,3.6,CA,1734591151
526,terme,41.2092,36.9739,9.95,66,3,1.44,TR,1734591152
527,sabang,5.8933,95.3214,27.81,77,100,7.59,ID,1734591153
528,pokrovka,42.3414,78.0056,-1.34,75,99,1.27,KG,1734591154
529,sola,-13.8833,167.55,27.81,75,100,3.23,VU,1734591155
530,salinas,36.6777,-121.6555,13.94,84,0,2.57,US,1734590934
531,rodoc,43.3089,17.8069,-4.06,100,20,0.51,BA,1734591158
532,ikalamavony,-21.15,46.5833,32.57,23,6,0.25,MG,1734591159
533,karasu,41.071,30.7854,10.38,68,91,1.65,TR,1734591160
534,erdenet,49.0333,104.0833,-14.15,82,90,2.42,MN,1734591161
535,tocopilla,-22.092,-70.1979,18.89,82,99,1.59,CL,1734591162
536,tengrela,10.4869,-6.4097,16.54,26,4,1.67,CI,1734591163
537,rawson,-43.3002,-65.1023,15.16,25,0,3.6,AR,1734591164
538,o barco de valdeorras,42.4164,-6.9901,14.09,92,100,3.33,ES,1734591166
539,ta`u,-14.2336,-169.5144,26.99,80,87,8.82,AS,1734591167
540,dyatlovo,53.4631,25.4068,6.49,85,100,6.24,BY,1734591168
541,taulaga,-11.0553,-171.0883,28.24,79,100,7.45,AS,1734591169
542,port macquarie,-31.4333,152.9167,22.82,64,34,2.24,AU,1734591170
543,carnot,4.9409,15.8665,25.33,21,100,1.39,CF,1734591171
544,huddinge,59.237,17.9819,7.24,85,0,4.63,SE,1734591172
545,navalmoral de la mata,39.8916,-5.5406,10.87,95,90,3.62,ES,1734591174
